[
  {
    "name": "Woodfibre LNG Project",
    "status": "planning",
    "budget": 6900000000.00,
    "province": "British Columbia",
    "city": "Squamish",
    "latitude": 49.665393,
    "longitude": -123.253666
  },
  {
    "name": "Nuclear Waste Management Repository",
    "status": "planning",
    "budget": 26000000000.00,
    "province": "Ontario",
    "city": "Ignace",
    "latitude": 49.400000,
    "longitude": -91.670000
  },
  {
    "name": "Alberta Transmission Line Expansion",
    "status": "planning",
    "budget": 1500000000.00,
    "province": "Alberta",
    "city": "Edmonton",
    "latitude": 53.540000,
    "longitude": -113.490000
  },
  {
    "name": "Arctic Gateway Railway System",
    "status": "planning",
    "budget": 2600000000.00,
    "province": "Manitoba",
    "city": "Churchill",
    "latitude": 58.770000,
    "longitude": -94.170000
  },
  {
    "name": "Ring of Fire Chromite Mining Development",
    "status": "planning",
    "budget": 2000000000.00,
    "province": "Ontario",
    "city": "Webequie",
    "latitude": 52.800000,
    "longitude": -86.000000
  }
]
